City Name,Cloudiness,Country,Date,Humidity,Lat,Lng,Max Temp,Wind Speed
Ushuaia,75,AR,1537585200,100,-54.81,-68.31,32,19.46
Vila Franca do Campo,20,PT,1537588800,88,37.72,-25.43,73.4,8.05
Mahebourg,75,MU,1537585200,83,-20.41,57.7,71.6,13.87
Mataura,8,NZ,1537589733,71,-46.19,168.86,62.05,6.17
Sergeyevka,80,KZ,1537590270,100,53.88,67.42,51.52,7.96
Humaita,0,AR,1537585200,67,-24.93,-65.37,68,5.82
Joensuu,0,FI,1537588200,82,62.6,29.76,62.6,12.75
Saldanha,0,PT,1537590300,84,41.42,-6.55,51.34,2.59
Itarema,0,BR,1537590300,86,-2.92,-39.92,75.82,13.78
Sampit,0,ID,1537590301,76,-2.54,112.95,87.07,10.31
Castro,92,CL,1537590301,99,-42.48,-73.76,47.47,10.98
Vaini,88,IN,1537589746,100,15.34,74.49,71.14,3.83
Bluff,0,AU,1537589745,29,-23.58,149.07,79.87,10.54
Albany,90,US,1537588440,81,42.65,-73.75,69.98,16.11
Punta Arenas,40,CL,1537585200,69,-53.16,-70.91,33.8,12.75
Takoradi,76,GH,1537590304,99,4.89,-1.75,77.17,9.64
Simao,44,CN,1537590212,79,22.76,100.79,75.64,2.15
Dingle,76,PH,1537590305,92,11,122.67,81.31,2.93
Kapaa,40,US,1537588560,87,22.08,-159.32,82.94,11.41
Ponnani,20,IN,1537588800,74,10.77,75.93,84.2,4.7
Atuona,100,PF,1537589753,100,-9.8,-139.03,76.27,4.27
Avarua,40,CK,1537588800,60,-21.21,-159.78,75.2,10.29
Nabire,64,ID,1537590308,82,-3.36,135.5,77.8,2.59
Bredasdorp,92,ZA,1537585200,71,-34.53,20.04,53.6,2.24
Khatanga,44,RU,1537590309,98,71.98,102.47,40.18,11.99
Cherskiy,88,RU,1537590309,89,68.75,161.3,38.2,2.82
Busselton,0,AU,1537590310,96,-33.64,115.35,62.5,4.16
Tuatapere,12,NZ,1537590310,76,-46.13,167.69,57.64,13.89
Deep River,90,CA,1537588800,58,46.1,-77.49,57.2,23.04
Meulaboh,0,ID,1537590311,100,4.14,96.13,81.4,2.93
Yulara,0,AU,1537588800,27,-25.24,130.99,77,10.29
Yellowknife,20,CA,1537585200,100,62.45,-114.38,32,4.7
Bereda,40,ES,1537588800,100,43.27,-7.54,59,2.24
Los Llanos de Aridane,20,ES,1537588800,73,28.66,-17.92,73.4,11.41
Lebu,12,ET,1537589726,93,8.96,38.73,44.14,4.38
Ternate,40,PH,1537588800,74,14.29,120.72,87.8,4.7
Hobart,75,AU,1537588800,45,-42.88,147.33,62.6,17.22
Bathsheba,40,BB,1537588800,78,13.22,-59.52,80.6,12.75
Russell,0,AR,1537585200,63,-33.01,-68.8,62.6,3.36
Hermanus,24,ZA,1537590317,93,-34.42,19.24,33.61,2.04
Atambua,0,ID,1537590317,68,-9.11,124.89,86.8,3.38
Sitka,0,US,1537590318,61,37.17,-99.65,57.64,8.75
Slave Lake,1,CA,1537588800,69,55.28,-114.77,32,3.36
Bethel,75,US,1537589160,100,60.79,-161.76,50,16.11
Ahipara,92,NZ,1537590320,100,-35.17,173.16,56.47,14.67
Constitucion,24,MX,1537590320,87,23.99,-104.67,60.34,2.37
Souillac,0,FR,1537588800,93,45.6,-0.6,50,2.82
Rikitea,88,PF,1537589741,100,-23.12,-134.97,67.72,7.4
Lazaro Cardenas,20,MX,1537587720,64,28.39,-105.62,69.8,5.82
Karpathos,40,GR,1537588200,78,35.51,27.21,71.6,18.34
Bam,0,IR,1537590323,49,29.11,58.36,61.78,4.27
Lompoc,90,US,1537588560,89,34.64,-120.46,62.96,5.82
Severo-Kurilsk,24,RU,1537590324,93,50.68,156.12,51.16,15.79
Vostok,92,RU,1537590324,73,46.45,135.83,59.62,3.6
Longyearbyen,20,NO,1537584600,63,78.22,15.63,28.4,9.17
Kavieng,20,PG,1537590325,100,-2.57,150.8,86.08,4.05
Kodiak,1,US,1537588380,93,39.95,-94.76,55.04,6.93
Leningradskiy,64,RU,1537590326,92,69.38,178.42,43.42,7.85
Xam Nua,12,LA,1537590189,71,20.42,104.04,76.09,2.59
Narrabri,32,AU,1537590327,38,-30.33,149.78,72.76,7.74
New Norfolk,75,AU,1537588800,45,-42.78,147.06,62.6,17.22
Tuktoyaktuk,75,CA,1537585200,69,69.44,-133.03,37.4,5.82
Byron Bay,8,AU,1537588800,53,-28.65,153.62,71.6,17.22
Soyo,20,AO,1537590329,99,-6.13,12.37,69.79,2.93
Sungaipenuh,80,ID,1537590330,80,-2.08,101.38,73.3,1.92
Shakawe,0,BW,1537590330,40,-18.36,21.84,62.32,6.96
Dikson,80,RU,1537590331,92,73.51,80.55,40.9,15.23
Kimbe,0,PG,1537590331,96,-5.56,150.15,84.01,1.92
Port-Gentil,88,GA,1537590332,100,-0.72,8.78,76.27,10.54
Vestmannaeyjar,48,IS,1537590333,100,63.44,-20.27,41.62,14.34
Georgetown,0,GY,1537585200,94,6.8,-58.16,77,4.7
Bosaso,12,SO,1537590334,100,11.28,49.18,80.95,5.73
Betulia,75,CO,1537585200,93,6.11,-75.98,60.8,2.24
Fukue,40,JP,1537588140,54,35.03,136.69,84.2,13.87
Arraial do Cabo,32,BR,1537589737,100,-22.97,-42.02,70.24,7.96
Upernavik,32,GL,1537590336,100,72.79,-56.15,29.2,3.94
Ramona,1,US,1537588560,67,33.04,-116.87,69.98,3.36
Tadine,88,NC,1537590337,97,-21.55,167.88,71.14,20.27
Asosa,32,ET,1537590338,95,10.07,34.53,57.55,2.71
Placido de Castro,12,BR,1537590339,94,-10.34,-67.19,75.82,1.92
Falkensee,20,DE,1537588200,76,52.57,13.09,51.8,12.75
Rostock,75,DE,1537586400,81,54.09,12.13,50,11.41
Birobidzhan,92,RU,1537590341,58,48.79,132.93,59.26,5.61
Lengshuitan,36,CN,1537590341,63,26.41,111.6,79.87,5.73
Brae,92,GB,1537588200,81,60.4,-1.35,50,17.22
Sinnamary,8,GF,1537590284,95,5.38,-52.96,81.4,13.44
Masvingo,0,ZW,1537590150,78,-20.08,30.83,59.08,6.51
Sembakung,56,ID,1537590343,81,3.82,117.25,83.47,2.93
Koshurnikovo,12,RU,1537590344,60,54.3,93.39,50.53,3.15
Hilo,20,US,1537588380,79,19.71,-155.08,78.08,5.82
Malanje,0,AO,1537590345,95,-9.54,16.35,62.32,4.38
Palmer,20,AU,1537588800,52,-34.85,139.16,66.2,8.05
Tomatlan,80,MX,1537590346,98,19.93,-105.25,76.27,1.25
Mar del Plata,88,AR,1537590109,93,-46.43,-67.52,40.54,13.78
Provideniya,88,RU,1537590347,99,64.42,-173.23,44.68,27.54
Pevek,0,RU,1537590347,94,69.7,170.27,46.57,2.59
Husavik,92,CA,1537590348,99,50.56,-96.99,42.52,2.59
Puerto Madryn,92,AR,1537590348,86,-42.77,-65.04,52.87,6.73
Banda Aceh,8,ID,1537590349,70,5.56,95.32,85.45,4.61
Hithadhoo,64,MV,1537590349,100,-0.6,73.08,81.04,8.52
Gat,44,SN,1537590350,85,14.69,-16.54,81.31,9.19
Chachapoyas,0,PE,1537590351,84,-6.23,-77.87,53.77,1.03
Bouca,88,CF,1537590352,99,6.51,18.28,68.53,4.27
Tasiilaq,80,GL,1537588200,69,65.61,-37.64,35.6,16.11
Chipinge,0,ZW,1537590353,91,-20.19,32.62,60.88,2.71
Nikolskoye,0,RU,1537587000,82,59.7,30.79,60.8,13.42
Chokurdakh,88,RU,1537590354,100,70.62,147.9,38.38,4.38
San Cristobal,40,EC,1537585200,81,-0.39,-78.55,50,5.82
Garowe,0,SO,1537590355,48,8.41,48.48,78.88,11.54
Comodoro Rivadavia,90,AR,1537585200,87,-45.87,-67.48,42.8,14.99
Brunico,75,IT,1537588200,93,46.8,11.94,50,8.05
Road Town,1,VG,1537584780,76,18.42,-64.62,82.04,5.82
Yar-Sale,92,RU,1537590357,100,66.83,70.83,46.75,6.85
Kavaratti,32,IN,1537590233,100,10.57,72.64,80.14,11.1
Bambous Virieux,75,MU,1537588800,78,-20.34,57.76,73.4,13.87
Benghazi,0,LY,1537590358,100,32.12,20.07,77.8,9.53
Nadym,68,RU,1537590359,85,65.53,72.51,43.42,4.61
Kudahuvadhoo,64,MV,1537590359,100,2.67,72.89,78.7,3.04
Tokonou,12,GN,1537590360,95,9.65,-9.78,70.06,7.74
Monroe,1,US,1537589940,83,41.91,-83.4,62.96,10.29
Puerto Ayora,12,EC,1537590197,100,-0.74,-90.35,69.25,12.33
Cabo San Lucas,20,MX,1537588140,78,22.89,-109.91,80.6,2.24
Barrow,8,AR,1537590362,47,-38.31,-60.23,52.42,4.38
Cape Town,0,ZA,1537588800,76,-33.93,18.42,53.6,9.17
Tazovskiy,24,RU,1537590363,75,67.47,78.7,44.41,12.77
Akonolinga,88,CM,1537590364,98,3.77,12.24,69.34,2.37
Northam,92,GB,1537584600,87,51.04,-4.21,51.8,6.93
Rexburg,1,US,1537588560,41,43.82,-111.79,60.08,4.7
Bahia Honda,32,CU,1537590365,90,22.9,-83.16,78.61,5.17
Glendive,1,US,1537588560,71,47.11,-104.71,53.06,6.93
Alta Floresta,76,BR,1537590366,94,-9.87,-56.08,74.02,0.69
Lasa,20,CY,1537588800,68,34.92,32.53,73.4,9.17
Hamilton,40,BM,1537584900,83,32.3,-64.78,80.6,18.34
Qaanaaq,88,GL,1537590210,100,77.48,-69.36,19.75,14.34
Port Elizabeth,90,US,1537588500,84,39.31,-74.98,73.04,6.93
Zemio,0,CF,1537590369,90,5.02,25.13,69.79,2.48
Nyurba,76,RU,1537590369,62,63.29,118.35,47.11,8.63
Nekrasovka,20,RU,1537587000,45,48.35,135.23,64.4,4.47
Thompson,5,CA,1537588800,79,55.74,-97.86,23,4.7
Puerto Princesa,40,PH,1537588800,62,9.74,118.73,87.8,6.93
Balagansk,0,RU,1537590081,75,54.01,103.05,49.99,3.6
Oyama,75,JP,1537585200,73,36.31,139.8,77,4.7
Katsuura,75,JP,1537585200,88,33.93,134.5,77,6.93
Tura,92,IN,1537590373,91,25.52,90.21,79.42,3.15
Jamestown,0,AU,1537590373,37,-33.21,138.6,73.75,8.97
Port Lincoln,0,AU,1537590374,82,-34.72,135.86,64.48,3.04
Churapcha,36,RU,1537590374,52,62,132.43,44.05,7.63
Edd,0,ER,1537590207,41,13.93,41.69,67.63,1.7
Poltavka,92,RU,1537590376,99,54.36,71.76,50.8,5.28
Luderitz,8,NA,1537590376,82,-26.65,15.16,54.58,20.6
Kerchevskiy,92,RU,1537590377,96,59.95,56.29,46.66,2.71
Esperance,20,TT,1537588800,94,10.24,-61.45,77,3.36
Albanel,20,CA,1537588800,82,48.88,-72.44,60.8,17.22
Nizwa,0,OM,1537590378,45,22.93,57.53,70.42,2.59
Yatou,75,CM,1537588800,94,3.63,9.81,75.2,4.7
Fortuna,0,ES,1537588800,94,38.18,-1.13,84.2,2.24
Rafai,0,CF,1537590380,92,4.95,23.92,70.78,3.04
Pangnirtung,56,CA,1537590380,92,66.15,-65.72,29.02,4.94
Evanston,90,US,1537589700,58,42.04,-87.69,62.06,19.46
Lagoa,0,PT,1537588800,73,37.14,-8.45,75.2,4.7
Eyl,0,SO,1537590382,84,7.98,49.82,76.72,22.84
Abu Kamal,0,SY,1537590383,57,34.45,40.92,66.64,6.85
Denpasar,20,ID,1537588800,66,-8.65,115.22,86,11.41
Port Alfred,0,ZA,1537590384,100,-33.59,26.89,59.98,13.89
Hof,40,DE,1537588560,86,50.32,11.92,48.74,14.45
Torbay,40,CA,1537588800,86,47.66,-52.73,37.4,6.93
Vardo,1,US,1537588500,87,39.62,-77.74,73.94,6.93
Namibe,44,AO,1537590386,100,-15.19,12.15,66.1,5.84
Airai,0,TL,1537590387,28,-8.93,125.41,87.25,1.92
Burns Lake,88,CA,1537590387,80,54.23,-125.76,40.99,5.84
Saint George,0,GR,1537588200,72,39.45,22.34,60.8,5.82
Vondrozo,0,MG,1537590388,88,-22.82,47.32,51.07,0.47
Murgab,0,TM,1537585200,59,37.5,61.97,60.8,4.7
Carnarvon,0,ZA,1537590389,31,-30.97,22.13,31.27,3.49
Alice Springs,0,AU,1537588800,20,-23.7,133.88,77,9.17
Harnosand,88,SE,1537588200,81,62.63,17.94,51.8,21.92
Charters Towers,44,AU,1537590391,57,-20.07,146.27,77.08,11.43
Isangel,48,VU,1537590391,100,-19.55,169.27,72.22,14.23
Barcelos,0,PT,1537588800,100,41.53,-8.62,60.8,1.92
Kurmanayevka,0,RU,1537590392,80,52.51,52.07,39.19,2.93
Adeje,92,NG,1537590393,100,5.68,5.76,72.4,4.38
Hualmay,12,PE,1537590393,96,-11.1,-77.61,54.04,1.7
Hasaki,75,JP,1537587000,83,35.73,140.83,77,8.05
Lufilufi,75,WS,1537585200,70,-13.87,-171.6,86,17.22
Coihaique,90,CL,1537588380,100,-45.58,-72.07,39.2,3.36
Pontes e Lacerda,44,BR,1537590396,94,-15.23,-59.33,70.24,3.15
Harpalpur,92,IN,1537590396,91,25.29,79.33,76,16.91
Tual,48,ID,1537590397,98,-5.67,132.75,81.4,10.31
Kaitangata,0,NZ,1537590397,76,-46.28,169.85,60.16,2.26
Cayenne,0,GF,1537588800,100,4.94,-52.33,77,8.97
Cidreira,0,BR,1537590398,94,-30.17,-50.22,64.3,5.84
Kahului,40,US,1537589220,72,20.89,-156.47,82.94,10.29
Jasper,1,US,1537588560,100,33.83,-87.28,80.96,3.15
Leh,88,IN,1537590400,77,34.16,77.58,22.27,2.15
Kamyshla,8,RU,1537590401,83,54.11,52.14,39.28,2.59
Ormara,68,PK,1537590401,97,25.21,64.64,77.53,3.49
Ponta do Sol,12,BR,1537590402,91,-20.63,-46,58.45,2.71
Thinadhoo,64,MV,1537590402,100,0.53,72.93,81.31,2.59
Sao Filipe,0,CV,1537590403,95,14.9,-24.5,78.52,15.9
Yaan,80,NG,1537590403,96,7.38,8.57,74.29,5.39
Zyryanka,92,RU,1537590404,100,65.73,150.89,37.84,3.49
Pangai,40,TO,1537588800,88,-19.8,-174.35,77,11.41
Coquimbo,75,CL,1537585200,93,-29.95,-71.34,53.6,4.5
Butaritari,0,KI,1537590406,100,3.07,172.79,85.54,7.74
La Plata,0,AR,1537588800,88,-34.92,-57.95,64.4,6.93
Conde,100,BR,1537590407,91,-11.81,-37.61,75.28,7.74
Hearst,88,CA,1537590407,90,49.69,-83.67,40.9,10.09
Guarapari,40,BR,1537585200,83,-20.67,-40.5,75.2,8.05
Omaruru,0,NA,1537590408,36,-21.42,15.95,56.56,4.61
Komsomolskiy,88,RU,1537590409,96,67.55,63.78,46.39,10.2
Poronaysk,32,RU,1537590409,67,49.22,143.1,58.36,4.38
Aleksandrov Gay,0,RU,1537590410,84,50.14,48.57,48.46,4.72
Dakar,36,SN,1537588800,88,14.69,-17.45,82.4,9.17
Rio Grande,0,BR,1537590399,91,-32.03,-52.1,62.14,5.28
Spring Valley,75,US,1537588560,84,41.11,-74.04,71.96,9.17
Kondinskoye,76,RU,1537590216,90,59.65,67.41,49.54,5.17
Salamiyah,0,SY,1537590412,86,35.01,37.05,59.26,6.96
Padang,20,ID,1537590413,100,-0.92,100.36,83.47,0.25
Ous,88,RU,1537590413,86,60.91,61.52,47.11,4.72
Tromso,0,NO,1537584600,66,69.65,18.96,48.2,17.22
Barrhead,36,CA,1537590414,77,54.12,-114.4,28.66,6.73
Inhambane,92,MZ,1537590415,100,-23.87,35.38,72.22,6.06
Saint-Philippe,75,CA,1537588800,78,45.36,-73.48,71.6,27.51
Kruisfontein,36,ZA,1537590175,95,-34,24.73,57.91,16.35
Norman Wells,20,CA,1537588800,35,65.28,-126.83,41,5.82
Ancud,92,CL,1537590417,97,-41.87,-73.83,48.55,12.88
Kloulklubed,90,PW,1537588200,83,7.04,134.26,82.4,10.29
Turukhansk,32,RU,1537590418,86,65.8,87.96,46.21,14
Neuquen,0,AR,1537585200,34,-38.95,-68.06,66.2,9.17
East London,75,ZA,1537588800,71,-33.02,27.91,57.2,9.17
Whitehorse,5,CA,1537588800,42,60.72,-135.06,44.6,9.17
Sao Joao da Barra,92,BR,1537590420,100,-21.64,-41.05,70.6,3.04
Narsaq,76,GL,1537588200,80,60.91,-46.05,33.8,4.7
Vathi,20,GR,1537588200,88,35.36,23.6,64.4,5.95
Nantucket,1,US,1537589700,90,41.28,-70.1,69.98,14.99
San Policarpo,92,PH,1537590424,100,12.18,125.51,80.5,8.41
Osakarovka,88,KZ,1537590424,72,50.56,72.58,49,18.25
Bima,0,ID,1537590425,59,-8.45,118.73,87.52,3.71
Bilibino,56,RU,1537590426,71,68.06,166.44,47.47,0.92
Vorotynets,0,RU,1537590426,92,56.06,45.86,54.22,7.96
Pisco,90,PE,1537585200,87,-13.71,-76.2,60.8,8.05
Cap Malheureux,75,MU,1537588800,78,-19.98,57.61,73.4,13.87
Derzhavinsk,92,KZ,1537590428,98,51.1,66.31,51.97,13.44
Port Hardy,90,CA,1537588800,93,50.7,-127.42,51.8,3.36
Salalah,20,OM,1537584600,78,17.01,54.1,71.6,2.24
Buraydah,0,SA,1537585200,34,26.33,43.97,78.8,2.24
Jinji,8,CN,1537590431,77,22.16,112.49,86.17,1.36
El Cobre,20,CU,1537588200,83,20.05,-75.95,77,4.7
Borisovka,0,RU,1537587000,71,50.61,36.01,57.2,8.95
Kungurtug,0,RU,1537590433,46,50.6,97.53,44.41,3.27
Clyde River,90,CA,1537588800,100,70.47,-68.59,26.6,2.24
Shagonar,64,RU,1537590434,89,51.54,92.92,44.32,2.26
Lorengau,24,PG,1537590434,96,-2.02,147.27,85,7.96
Victoria,75,BN,1537588800,83,5.28,115.24,82.4,3.36
Saskylakh,92,RU,1537590435,98,71.97,114.09,41.8,14.56
Middelburg,20,ZA,1537590436,89,-25.77,29.46,47.65,2.82
Shenzhen,20,CN,1537588800,66,22.54,114.05,87.8,6.93
Nouadhibou,0,MR,1537585200,69,20.93,-17.03,75.2,17.22
Broome,32,GB,1537588560,87,52.47,1.45,50,10.29
Lithakia,20,GR,1537588200,82,37.72,20.83,66.2,3.94
Panzos,92,GT,1537590438,100,15.4,-89.67,74.11,1.81
Abrau-Dyurso,0,RU,1537587000,72,44.7,37.6,59,2.24
Harrisonburg,1,US,1537588500,96,38.45,-78.87,76.46,5.61
Channarayapatna,0,IN,1537588800,78,13.25,77.8,75.2,13.87
Kanye,8,BW,1537590440,76,-24.98,25.34,60.97,13.44
Karratha,0,AU,1537590441,12,-20.74,116.85,91.48,6.73
Nuuk,68,GL,1537588200,69,64.17,-51.74,35.6,6.93
Magistralnyy,0,RU,1537590442,60,56.17,107.45,47.92,4.38
Arlit,88,NE,1537590443,38,18.74,7.39,81.04,2.26
Vila Velha,75,BR,1537588800,78,-3.71,-38.6,78.8,13.87
Saint-Augustin,0,FR,1537588800,93,44.83,-0.61,53.6,2.24
Hofn,88,IS,1537590445,100,64.25,-15.21,44.32,19.48
Bartica,75,GY,1537588800,100,6.41,-58.62,75.2,4.7
Half Moon Bay,90,US,1537588560,93,37.46,-122.43,69.08,4.7
Laguna,0,MX,1537590448,80,27.52,-110.01,79.78,2.71
Ende,8,ID,1537590448,92,-8.84,121.65,82.93,6.62
Hobyo,80,SO,1537590449,91,5.35,48.53,75.73,19.6
Pangoa,8,PE,1537590449,92,-12.12,-73,64.84,2.26
Ribeira Grande,64,PT,1537590450,98,38.52,-28.7,74.47,21.5
Mut,0,TR,1537590450,61,36.64,33.44,47.02,2.04
Nevelsk,68,RU,1537587000,34,46.67,141.86,68,11.18
Show Low,1,US,1537588500,31,34.25,-110.03,71.06,8.05
Rocha,12,UY,1537590452,89,-34.48,-54.34,56.92,1.7
Kununurra,0,AU,1537588800,7,-15.77,128.74,98.6,11.41
Alofi,68,NU,1537588800,74,-19.06,-169.92,78.8,11.41
Monteagudo,88,BO,1537590453,98,-19.8,-63.96,61.87,2.37
Henties Bay,32,NA,1537590454,100,-22.12,14.28,54.04,4.61
Saint Anthony,1,US,1537588560,41,43.97,-111.68,60.08,4.7
Chuy,0,UY,1537590455,83,-33.69,-53.46,63.58,5.95
Lodwar,0,KE,1537590455,74,3.12,35.6,70.42,6.17
Hay River,5,CA,1537588800,54,60.82,-115.79,30.2,4.7
Goderich,92,CA,1537590456,86,43.74,-81.71,62.05,21.61
Baghdad,68,IQ,1537588800,34,33.3,44.38,80.6,8.05
Dong Hoi,0,VN,1537590457,91,17.48,106.6,84.46,6.29
Temryuk,0,RU,1537587000,72,45.28,37.39,59,2.24
Chunoyar,0,RU,1537590458,59,57.45,97.32,50.26,5.39
Petropavlovka,0,RU,1537590459,70,50.61,105.32,48.28,3.94
Syasstroy,8,RU,1537590459,77,60.14,32.56,63.22,10.2
Bulawayo,8,ZW,1537590460,75,-20.16,28.59,59.98,6.4
Ostrovnoy,80,RU,1537590165,85,68.05,39.51,44.5,14.45
Udachnyy,56,RU,1537590461,63,66.42,112.4,49.18,6.85
Kurayoshi,75,JP,1537585200,73,35.43,133.83,78.8,6.93
Codrington,0,AU,1537590462,68,-28.95,153.24,69.7,3.6
Gazli,0,UZ,1537590463,50,40.13,63.45,57.82,2.93
Pahrump,1,US,1537588380,21,36.21,-115.98,89.06,4.7
Nioaque,8,BR,1537590464,87,-21.16,-55.83,73.12,4.27
The Valley,20,AI,1537588800,74,18.22,-63.06,82.4,9.17
Deputatskiy,0,RU,1537590465,68,69.3,139.9,33.07,4.05
Naziya,0,RU,1537590465,73,59.84,31.59,64.12,10.98
Fort Nelson,5,CA,1537588800,74,58.81,-122.69,30.2,2.24
Qaqortoq,56,GL,1537588200,80,60.72,-46.03,33.8,4.7
Lavrentiya,12,RU,1537590467,93,65.58,-170.99,45.58,24.52
Jalu,0,LY,1537590467,69,29.03,21.55,65.02,3.04
Beaufort,75,MY,1537588800,83,5.36,115.76,87.8,3.36
Flinders,44,AU,1537585200,25,-34.58,150.85,73.4,8.05
Kieta,56,PG,1537590469,100,-6.22,155.63,77.08,3.71
Zhanaozen,0,KZ,1537590469,82,43.35,52.85,51.52,2.93
Ciudad Valles,68,MX,1537590470,96,21.99,-99.01,74.2,0.92
Pressbaum,0,AT,1537588200,71,48.18,16.08,55.4,21.92
Proletarskiy,0,RU,1537587000,71,50.79,35.77,57.2,8.95
Egvekinot,80,RU,1537590226,92,66.32,-179.17,44.68,3.38
Sangar,80,RU,1537590472,69,63.92,127.47,42.52,3.38
Gizo,40,IL,1537588200,73,31.8,34.94,75.2,3.36
Sao Felix do Xingu,0,BR,1537590473,88,-6.64,-51.99,75.91,2.26
Sterling Heights,75,US,1537589700,53,42.58,-83.03,62.96,14.99
Karasburg,24,NA,1537590474,25,-28.01,18.75,48.82,6.4
Muyezerskiy,44,RU,1537590475,74,63.93,31.65,63.22,11.21
Bhaderwah,0,IN,1537590476,50,32.98,75.72,61.69,1.14
Jinchang,0,CN,1537590476,54,38.52,102.19,55.48,1.14
Nanortalik,36,GL,1537590477,100,60.14,-45.24,35.14,6.4
Ust-Omchug,76,RU,1537590477,69,61.13,149.63,39.82,3.49
Vallenar,0,CL,1537590478,82,-28.58,-70.76,50.53,1.81
Pimentel,0,BR,1537590478,76,-3.7,-45.5,76.99,6.62
Marystown,44,CA,1537590479,100,47.17,-55.16,45.04,9.53
Trinidad,8,UY,1537590479,87,-33.52,-56.9,61.51,4.94
Porto Novo,0,BR,1537588800,93,-23.68,-45.44,62.6,2.59
Anadyr,75,RU,1537585200,87,64.73,177.51,50,4.47
Oktyabrskoye,68,RU,1537590481,86,56.73,85.44,58.54,3.49
Alyangula,0,AU,1537590481,79,-13.85,136.42,83.47,15.23
Shingu,75,JP,1537585200,69,33.72,135.99,82.4,16.11
Tiksi,92,RU,1537590483,96,71.64,128.87,35.95,10.65
Chivay,20,PE,1537590484,55,-15.64,-71.6,29.29,1.59
Houma,68,CN,1537590484,43,35.63,111.36,68.44,3.27
Palasbari,75,IN,1537587000,84,26.14,91.55,86,5.82
Kalmunai,20,LK,1537590485,84,7.42,81.82,81.04,10.54
Fare,92,PF,1537590225,100,-16.7,-151.02,76.54,22.62
Bonthe,92,SL,1537590486,96,7.53,-12.5,76.54,5.61
Tashla,0,RU,1537587000,100,53.71,49.75,51.8,2.24
Shache,24,CN,1537590314,42,38.42,77.24,62.14,5.5
Nisia Floresta,20,BR,1537588800,83,-6.09,-35.21,75.2,5.82
Saint-Joseph,75,FR,1537588800,88,43.56,6.97,73.4,3.36
Karasjok,92,NO,1537588200,75,69.47,25.52,44.6,8.05
Amarante do Maranhao,8,BR,1537590381,64,-5.57,-46.74,78.79,6.17
Santa Rosa,12,AR,1537590492,40,-36.62,-64.29,66.91,15.01
Netivot,0,IL,1537590493,86,31.42,34.59,55.48,2.37
Aklavik,75,CA,1537588800,45,68.22,-135.01,42.8,3.36
Graaff-Reinet,0,ZA,1537590494,62,-32.25,24.53,30.64,2.93
Oistins,40,BB,1537588800,78,13.07,-59.53,80.6,12.75
Dunedin,0,NZ,1537590495,70,-45.87,170.5,61.78,2.26
Uruzgan,0,AF,1537590496,64,32.93,66.63,40.18,2.15
Helena,1,US,1537588380,50,46.59,-112.04,57.02,3.36
Hambantota,68,LK,1537590497,100,6.12,81.12,77.35,8.75
Sorland,92,NO,1537590498,100,67.67,12.69,51.61,31.68
Nsanje,0,MZ,1537590498,91,-16.92,35.26,66.28,7.85
Hun,0,BE,1537588200,81,50.34,4.87,51.8,9.17
Naze,40,NG,1537585200,100,5.43,7.07,71.6,1.59
Ulaangom,88,MN,1537590500,50,49.98,92.07,44.59,2.04
Kabin Buri,20,TH,1537590501,91,13.95,101.72,84.37,4.16
Verkhoyansk,48,RU,1537590501,70,67.55,133.39,35.23,4.05
Iqaluit,75,CA,1537588800,86,63.75,-68.52,26.6,5.82
Batemans Bay,36,AU,1537590502,68,-35.71,150.18,64.66,4.5
Pacific Grove,90,US,1537588500,90,36.62,-121.92,57.92,5.82
Talnakh,12,RU,1537590504,92,69.49,88.39,43.87,11.21
Chapleau,68,CA,1537590504,86,47.85,-83.4,41.08,10.2
Wakkanai,75,JP,1537585200,63,45.41,141.67,62.6,10.29
Rio Cuarto,0,AR,1537585200,64,-33.13,-64.35,71.6,16.11
Xining,32,CN,1537590506,78,36.62,101.77,46.3,3.6
Zaysan,12,KZ,1537590506,76,47.47,84.87,54.67,2.48
Quilmana,56,PE,1537590507,83,-12.95,-76.38,58.45,2.26
San Patricio,0,PY,1537590507,91,-26.98,-56.83,69.34,2.59
Catio,8,GW,1537590508,92,11.28,-15.25,76.18,10.09
Marawi,88,PH,1537590508,81,8,124.29,75.64,3.49
Brazzaville,56,CD,1537588800,83,-4.27,15.27,75.2,4.7
Broken Hill,0,AU,1537590509,49,-31.97,141.45,74.29,5.17
Morros,0,BR,1537588800,83,-2.87,-44.04,78.8,8.05
Nome,75,US,1537588500,91,30.04,-94.42,80.06,7.4
Moses Lake,1,US,1537588380,46,47.13,-119.28,66.02,3.36
Nemuro,75,JP,1537585200,67,43.32,145.57,62.6,11.41
Tarutyne,0,UA,1537590512,80,46.19,29.15,49.81,1.92
Wanning,75,AT,1537588200,87,48.64,13.53,53.6,9.17
Sayyan,0,YE,1537590513,40,15.17,44.32,50.71,3.6
Racine,1,US,1537588500,64,42.73,-87.78,57.02,13.87
Doha,20,QA,1537587000,79,25.29,51.53,89.6,5.82
Portland,75,US,1537588380,54,45.52,-122.67,69.98,4.7
Kundiawa,0,PG,1537590515,66,-6.02,144.97,71.59,0.92
Khasan,0,RU,1537590515,90,42.43,130.64,67,3.83
Anito,80,PH,1537590516,100,12.45,125.29,79.42,8.97
Klaksvik,80,FO,1537588200,93,62.23,-6.59,44.6,26.4
Lata,92,IN,1537590517,100,30.78,78.62,51.34,1.92
Natal,20,BR,1537588800,83,-5.81,-35.21,75.2,5.82
Yumbe,68,UG,1537590518,96,3.47,31.25,63.31,2.15
Sechura,8,PE,1537590519,82,-5.56,-80.82,67.54,11.32
Saint Simons,75,US,1537588620,69,31.14,-81.39,80.96,8.05
Yuci,0,CN,1537587000,22,37.68,112.73,68,11.18
North Platte,1,US,1537588380,86,41.12,-100.77,48.02,9.17
Porbandar,40,IN,1537588800,88,21.64,69.61,80.6,11.41
Bang Rakam,40,TH,1537588800,62,16.75,100.12,89.6,3.36
Hobe Sound,75,US,1537589700,78,27.06,-80.14,82.4,12.75
Faanui,92,PF,1537590313,100,-16.48,-151.75,77.35,20.83
Panaba,12,MX,1537590523,83,21.28,-88.27,79.6,5.95
Xiaoweizhai,92,CN,1537590524,100,26.23,107.51,67.99,2.04
Ushibuka,32,JP,1537590524,96,32.19,130.02,78.16,8.63
Toora-Khem,0,RU,1537590525,60,52.47,96.11,46.12,1.7
Fairbanks,75,US,1537588560,83,64.84,-147.72,48.92,10.29
Ambulu,0,ID,1537590526,86,-8.35,113.61,80.86,6.17
Ranau,68,MY,1537590526,87,5.95,116.67,74.47,2.15
Ukiah,1,US,1537588560,28,39.15,-123.21,69.08,4.7
Ilulissat,12,GL,1537588200,49,69.22,-51.1,26.6,13.87
La Ronge,5,CA,1537588800,84,55.1,-105.3,32,5.82
Biloela,0,AU,1537590528,40,-24.4,150.51,76.45,7.29
Petropavlovsk-Kamchatskiy,0,RU,1537587000,39,53.05,158.65,64.4,13.42
Vredendal,0,ZA,1537590529,82,-31.68,18.49,34.96,2.48
Upata,68,VE,1537590529,95,8.02,-62.41,73.66,4.5
Lucapa,0,AO,1537590530,83,-8.42,20.74,63.58,2.71
Nargana,92,PA,1537590530,100,9.44,-78.59,78.97,3.94
Lensk,0,RU,1537590531,69,60.71,114.91,48.64,3.71
Belmonte,0,PT,1537590531,74,40.36,-7.35,55.57,4.38
Batagay-Alyta,80,RU,1537590532,82,67.8,130.41,28.57,3.94
Cururupu,0,BR,1537590532,87,-1.82,-44.87,76.72,7.4
Visnes,92,NO,1537588200,76,59.36,5.22,51.8,25.28
Horqueta,8,PY,1537590533,90,-23.34,-57.05,74.38,3.94
San Quintin,20,PH,1537588800,79,17.54,120.52,86,9.17
La Palma,0,CO,1537590535,90,5.36,-74.39,66.19,1.92
Port Augusta,0,AU,1537588800,21,-32.49,137.76,80.6,11.41
Bindura,0,ZW,1537590537,90,-17.3,31.33,55.75,4.83
Vargem Grande,75,BR,1537588800,100,-23.71,-46.2,64.4,5.82
Vao,24,EE,1537590538,58,59.1,26.19,66.46,14.79
Trairi,0,BR,1537590539,100,-3.28,-39.27,78.97,20.27
Amapa,75,HN,1537588800,94,15.09,-87.97,75.2,2.24
Mount Gambier,80,AU,1537590293,92,-37.83,140.78,58.54,4.94
Taltal,0,CL,1537590540,95,-25.41,-70.49,52.15,0.92
Guaymas,0,MX,1537590541,79,27.92,-110.9,79.42,2.71
Valdez,75,US,1537588560,79,61.13,-146.35,50,4.7
Atar,0,MR,1537590542,43,20.52,-13.05,82.75,7.63
College,75,US,1537588560,83,64.86,-147.8,48.92,10.29
Ledyard,90,US,1537589700,83,41.44,-72.02,71.96,10.29
Waipawa,92,NZ,1537590544,72,-39.94,176.59,52.78,10.42
Faya,0,SA,1537588800,25,18.39,42.45,66.2,6.51
Sibu,75,MY,1537588800,74,2.29,111.83,86,3.49
Astana,75,KZ,1537587000,71,51.13,71.43,51.8,22.37
South Venice,75,US,1537589700,94,27.05,-82.42,78.98,4.7
Rawson,88,AR,1537590546,73,-43.3,-65.11,49.36,12.44
Bawku,48,GH,1537590546,98,11.06,-0.24,73.21,3.38
Avallon,32,FR,1537590547,91,47.49,3.91,43.42,2.71
Kaeo,92,NZ,1537590547,100,-35.1,173.78,54.67,10.98
Praya,20,ID,1537587000,46,-8.71,116.27,89.6,9.17
Saint-Prosper,92,CA,1537590548,94,46.21,-70.48,61.69,15.46
Atasu,0,KZ,1537590549,54,48.68,71.64,49.45,12.77
Bridlington,8,GB,1537588200,87,54.08,-0.19,48.2,12.75
Guerrero Negro,0,MX,1537590550,73,27.97,-114.04,71.68,10.42
Ligayan,12,PH,1537590551,100,4.65,119.47,83.38,8.63
Imbituba,75,BR,1537588800,94,-28.24,-48.67,68,8.05
Sioux Lookout,20,CA,1537588800,84,50.1,-91.92,37.4,3.36
Barretos,0,BR,1537590552,91,-20.55,-48.57,66.82,3.6
Lang Son,0,VN,1537590553,69,21.83,106.73,85.9,3.94
Muravlenko,92,RU,1537590553,84,63.79,74.5,44.05,3.27
Hami,0,CN,1537590554,36,42.84,93.51,71.05,5.73
Grand Gaube,75,MU,1537588800,78,-20.01,57.66,73.4,13.87
Olinda,75,EC,1537588800,83,-2.03,-79.75,71.6,17.22
Antananarivo,20,MG,1537588800,87,-18.91,47.53,55.4,2.71
Misratah,8,LY,1537590556,100,32.38,15.09,74.83,8.19
Bulgan,0,MN,1537590556,55,48.81,103.53,47.11,4.16
Reading,90,US,1537588500,87,40.34,-75.93,73.94,9.17
Lagos,40,NG,1537588800,94,6.46,3.39,77,2.24
Seoul,40,KR,1537588800,29,37.57,126.98,78.8,11.41
Pekan,75,MY,1537585200,79,3.49,103.39,86,3.36
Kargasok,56,RU,1537590558,81,59.06,80.87,53.77,4.38
Corbelia,0,BR,1537588800,82,-24.8,-53.31,68,9.17
Abasolo,40,MX,1537587960,82,20.45,-101.53,64.4,4.7
San Ramon de la Nueva Oran,76,AR,1537590560,85,-23.13,-64.33,74.74,3.38
Uddevalla,36,SE,1537588200,66,58.35,11.94,53.6,23.04
Preobrazheniye,64,RU,1537590561,69,42.9,133.91,61.42,2.37
Khani,40,GE,1537587000,100,41.96,42.96,60.8,2.24
Richards Bay,92,ZA,1537590562,95,-28.77,32.06,58.36,2.59
Mehamn,44,NO,1537590562,89,71.03,27.85,43.24,5.39
Havoysund,20,NO,1537588200,93,71,24.66,44.6,9.17
Foumban,92,CM,1537590563,100,5.73,10.9,62.41,2.04
Trelew,88,AR,1537590564,73,-43.25,-65.31,49.36,12.44
Cozmesti,0,RO,1537588800,71,46.88,27.98,57.2,8.05
Ravar,0,IR,1537590565,61,31.27,56.81,56.2,1.92
Griffith,20,AU,1537590565,59,-34.29,146.06,69.16,5.06
Sedkyrkeshch,40,RU,1537587000,100,61.72,50.96,46.4,4.47
Njombe,0,TZ,1537590566,77,-9.34,34.77,53.77,7.52
Galle,1,US,1537588560,93,29.74,-97.91,80.96,4.7
Samarai,76,PG,1537590567,100,-10.62,150.67,78.07,21.39
Lixourion,0,GR,1537588200,82,38.2,20.43,66.2,3.15
Perene,0,PE,1537590568,90,-10.95,-75.23,68.98,2.04
Vilyuysk,92,RU,1537590569,59,63.75,121.63,46.3,9.19
Munirabad,64,IN,1537590569,90,15.28,76.33,73.3,10.98
Xinqing,0,CN,1537590570,74,48.28,129.53,58.9,3.15
Mudgal,48,IN,1537590570,83,16.02,76.43,75.28,11.77
Wattegama,56,LK,1537590571,91,7.35,80.68,74.74,5.61
Poum,20,MK,1537588800,81,41.28,20.71,48.2,4.7
West Bay,48,GB,1537584600,76,50.71,-2.76,53.6,5.82
Cabedelo,0,BR,1537588800,94,-6.97,-34.84,71.6,5.82
Rangapara,48,IN,1537590573,86,26.82,92.69,71.5,2.26
Honningsvag,44,NO,1537590574,94,70.98,25.97,44.59,5.17
Hiji,40,JP,1537585200,65,33.37,131.53,82.4,8.05
Ketchikan,1,US,1537588560,77,55.34,-131.65,57.02,6.93
Mount Darwin,0,ZW,1537590575,69,-16.77,31.58,65.38,8.75
Arona,0,IT,1537588200,93,45.76,8.56,69.8,5.82
Maniitsoq,64,GL,1537590576,99,65.42,-52.9,33.7,9.19
Havre-Saint-Pierre,90,CA,1537588800,87,50.23,-63.6,51.8,18.34
Kapit,36,MY,1537590577,78,2.02,112.94,83.74,1.7
Cairns,40,AU,1537588800,54,-16.92,145.77,80.6,25.28
Arman,75,RU,1537587000,59,59.7,150.17,60.8,6.71
Nazas,8,MX,1537590580,82,25.22,-104.11,65.56,2.93
Hayvoron,0,UA,1537590581,77,48.34,29.87,51.88,3.94
Usinsk,32,RU,1537590581,95,66,57.56,43.78,7.4
Jacareacanga,36,BR,1537590582,89,-6.22,-57.76,77.53,2.59
Plettenberg Bay,88,ZA,1537590292,100,-34.05,23.37,56.92,13.11
Olen,0,BE,1537588500,81,51.14,4.86,53.6,9.17
Omagh,0,GB,1537588200,93,54.6,-7.3,44.6,8.05
Hirara,75,JP,1537585200,79,24.8,125.28,86,4.7
Venustiano Carranza,40,MX,1537587960,68,19.42,-99.11,66.2,10.29
Khaniotis,0,GR,1537590585,100,40,23.58,68.35,7.52
